[
    {
        "title": "Adams Street Library",
        "address": "9 Adams Street (between John and Plymouth) Brooklyn, NY 11201",
        "position": "40.6991711, -73.9931456",
        "phone": "718.230.2264",
        "access": "Fully accessible",
        "branchid": "88",
        "pickuploc": "1",
        "region": "ParkSlope",
        "path": "https://www.bklynlibrary.org/locations/adams-street",
        "closingmsg": "",
        "status": "0",
        "hours": "",
        "tags": "closed;  open saturdays;laptop loan;notary"
    },
    {
        "title": "Arlington Library",
        "address": "203 Arlington Ave. at Warwick St. Brooklyn, NY 11207",
        "position": "40.6806631, -73.8873421",
        "phone": "718.277.6105",
        "access": "Fully accessible",
        "branchid": "21",
        "pickuploc": "1",
        "region": "NewLots",
        "path": "https://www.bklynlibrary.org/locations/arlington",
        "closingmsg": "The Arlington Library will close at 1:15pm on Saturday, June 7th. Please see our&nbsp;location map&nbsp;for a list of currently open branches.",
        "status": "0",
        "hours": "",
        "tags": "outdoor services;closed;  open saturdays;laptop loan;"
    },
    {
        "title": "Bay Ridge Library",
        "address": "7223 Ridge Blvd. at 73rd St. Brooklyn, NY 11209",
        "position": "40.6336068, -74.0295073",
        "phone": "718.748.5709",
        "access": "Fully accessible",
        "branchid": "28",
        "pickuploc": "1",
        "region": "NewUtrecht",
        "path": "https://www.bklynlibrary.org/locations/bay-ridge",
        "closingmsg": "",
        "status": "0",
        "hours": "<i class=\"fa-regular fa-clock icon\"></i>Today's Hours:  1 pm - 5 pm",
        "tags": "printing pickup;computer reservations;cooling center;closed;  open saturdays;teen tech center;open sundays;"
    },
    {
        "title": "Bedford Library",
        "address": "496 Franklin Avenue Brooklyn, NY 11238",
        "position": "40.6818421, -73.9561944",
        "phone": "718.623.0012",
        "access": "Fully accessible",
        "branchid": "22",
        "pickuploc": "1",
        "region": "CrownHeights",
        "path": "https://www.bklynlibrary.org/locations/bedford",
        "closingmsg": "Bedford Library will be closed on Friday, July 11th for building maintenance.&nbsp;We will reopen for regular service on Saturday, July 12th. We apologize for any inconvenience.Please visit our neighboring branches:Clinton HillMarcyMacon",
        "status": "0",
        "hours": "<i class=\"fa-regular fa-clock icon\"></i>Today's Hours:  1 pm - 5 pm",
        "tags": "closed;  open saturdays;open sundays;laptop loan;"
    },
    {
        "title": "Bedford Library Learning Center",
        "address": "496 Franklin Avenue Brooklyn, NY 11238",
        "position": "40.6818421, -73.9561944",
        "phone": "718.623.2134",
        "access": "Fully accessible",
        "branchid": "22L",
        "pickuploc": "0",
        "region": "CrownHeights",
        "path": "https://www.bklynlibrary.org/locations/bedford-learning-center",
        "closingmsg": "The Bedford Learning Center is now open!We are now enrolling students and recruiting volunteers for our literacy programs.If you are interested in enrolling in our Adult Basic Education or HSE/GED classes, please go to bit.ly/bedfordlearningcenter.Contact us at 646-844-4674 or BedfordLearningCenter@bklynlibrary.org with any questions!",
        "status": "0",
        "hours": "",
        "tags": "closed;  open saturdays;"
    },
    {
        "title": "Borough Park Library",
        "address": "1265 43rd St. at 13th Ave. Brooklyn, NY 11219",
        "position": "40.638856, -73.989018",
        "phone": "718.437.4085",
        "access": "Partially accessible",
        "branchid": "25",
        "pickuploc": "1",
        "region": "Flatbush",
        "path": "https://www.bklynlibrary.org/locations/borough-park",
        "closingmsg": "The Borough Park Branch will be closed at 2PM Saturday June 21, 2025. We apologize for the inconvenience. &nbsp;Please visit our&nbsp;location map&nbsp;for a list of nearby locations open today.",
        "status": "0",
        "hours": "<i class=\"fa-regular fa-clock icon\"></i>Today's Hours:  1 pm - 5 pm",
        "tags": "after-hours returns;outdoor services;cooling center;summer meals;closed; 24hr book drop; open saturdays;open sundays;laptop loan;"
    },
    {
        "title": "Brighton Beach Library",
        "address": "16 Brighton First Rd. at Brighton Beach Ave. Brooklyn, NY 11235",
        "position": "40.5761784, -73.9667995",
        "phone": "718.946.2917",
        "access": "Partially accessible",
        "branchid": "24",
        "pickuploc": "1",
        "region": "KingsHighway",
        "path": "https://www.bklynlibrary.org/locations/brighton-beach",
        "closingmsg": "Brighton Beach Library is temporarily closed due to low temperature in the branch. We will re-open tomorrow, January 8th at normal hours.",
        "status": "0",
        "hours": "",
        "tags": "after-hours returns;outdoor services;printing pickup;computer reservations;cooling center;summer meals;closed; 24hr book drop; open saturdays;laptop loan;"
    },
    {
        "title": "Brooklyn Heights Library",
        "address": "286 Cadman Plaza West Brooklyn, NY 11201",
        "position": "40.6956458, -73.9912976",
        "phone": "718.623.7100",
        "access": "Fully accessible",
        "branchid": "50",
        "pickuploc": "1",
        "region": "ParkSlope",
        "path": "https://www.bklynlibrary.org/locations/brooklyn-heights",
        "closingmsg": "On Wednesday, September 17th, the Brooklyn Heights library will close at 4pm for a special event. For library service after that time, please visit www.bklynlibrary.org.",
        "status": "0",
        "hours": "<i class=\"fa-regular fa-clock icon\"></i>Today's Hours:  1 pm - 5 pm",
        "tags": "after-hours returns;cooling center;closed; 24hr book drop; open saturdays;open sundays;laptop loan;"
    },
    {
        "title": "Brower Park Library",
        "address": "155 Brooklyn Ave Brooklyn, NY 11213",
        "position": "40.6744275, -73.944374",
        "phone": "718.230.2227",
        "access": "Fully accessible",
        "branchid": "79",
        "pickuploc": "1",
        "region": "CrownHeights",
        "path": "https://www.bklynlibrary.org/locations/brower-park",
        "closingmsg": "Due to building maintenance, the Brower Park Library will be closed today, Friday, August 1st. Please see our&nbsp;location map&nbsp;for a list of branches that are currently open.",
        "status": "0",
        "hours": "",
        "tags": "after-hours returns;outdoor services;closed; 24hr book drop; open saturdays;laptop loan;"
    },
    {
        "title": "Brownsville Library",
        "address": "61 Glenmore Ave. at Watkins St. Brooklyn, NY 11212",
        "position": "40.671469, -73.9085913",
        "phone": "718.498.9721",
        "access": "Fully accessible",
        "branchid": "27",
        "pickuploc": "1",
        "region": "NewLots",
        "path": "https://www.bklynlibrary.org/locations/brownsville",
        "closingmsg": "Brownsville Library is getting a complete renovation. The library will close end of business on Friday, November 21, 2025. All holds will be rerouted to nearby branch, Stone Ave&nbsp;(581 Mother Gaston Blvd &amp; Dumont Ave) starting December 1, 2025.Learn more about the renovationCheck out our upcoming programsDive into the library's online resourcesHomebound or have a visual disability? Try our Books by Mail&nbsp;program.The Bookmobile service will be provided near the library on Mondays starting November 24&nbsp;until December 29, 2025 from 11am until 4pm.Please check&nbsp;the locations map&nbsp;to find open branches in your area.&nbsp;",
        "status": "4",
        "hours": "",
        "tags": "after-hours returns;outdoor services;printing pickup;computer reservations;cooling center;closed; 24hr book drop; open saturdays;laptop loan;"
    },
    {
        "title": "Bushwick Library",
        "address": "340 Bushwick Avenue Brooklyn, NY 11206",
        "position": "40.7045694, -73.9396101",
        "phone": "718.602.1348",
        "access": "Fully accessible",
        "branchid": "29",
        "pickuploc": "1",
        "region": "CrownHeights",
        "path": "https://www.bklynlibrary.org/locations/bushwick",
        "closingmsg": "",
        "status": "0",
        "hours": "",
        "tags": "after-hours returns;outdoor services;printing pickup;computer reservations;cooling center;summer meals;closed; 24hr book drop; open saturdays;laptop loan;"
    },
    {
        "title": "Canarsie Library",
        "address": "1580 Rockaway Pkwy. at Ave. J Brooklyn, NY 11236",
        "position": "40.6422167, -73.8995607",
        "phone": "718.257.6547",
        "access": "Partially accessible",
        "branchid": "34",
        "pickuploc": "1",
        "region": "NewLots",
        "path": "https://www.bklynlibrary.org/locations/canarsie",
        "closingmsg": "Canarsie Library is getting a complete renovation. The library will be closed until at least 2027. All holds will be rerouted to our sister branch, Jamaica Bay.&nbsp;Learn more about the renovationCheck out our upcoming programsDive into the library's online resourcesHomebound or have a visual disability? Try our Books by Mail program.",
        "status": "3",
        "hours": "",
        "tags": "after-hours returns;outdoor services;printing pickup;computer reservations;cooling center;summer meals;closed for renovation; 24hr book drop; open saturdays;"
    },
    {
        "title": "Carroll Gardens Pop-Up Library",
        "address": "250 Baltic Street Brooklyn, NY 11201",
        "position": "40.686047, -73.9948338",
        "phone": "929.276.5768",
        "access": "Fully accessible",
        "branchid": "31",
        "pickuploc": "0",
        "region": "ParkSlope",
        "path": "https://www.bklynlibrary.org/locations/carroll-gardens",
        "closingmsg": "Due to the inclement weather, the Carroll Gardens Pop-Up Location will close early at 4pm today, Thursday, July 31.",
        "status": "0",
        "hours": "",
        "tags": "cooling center;closed;"
    },
    {
        "title": "Center for Brooklyn History",
        "address": "128 Pierrepont Street Brooklyn, NY 11201",
        "position": "40.6947963, -73.992441",
        "phone": "718.222.4111",
        "access": "Partially accessible",
        "branchid": "91",
        "pickuploc": "0",
        "region": "CBH",
        "path": "https://www.bklynlibrary.org/locations/center-for-brooklyn-history",
        "closingmsg": "Please note, Othmer Library is closed to the public on Mondays and&nbsp;hours vary from the Center for Brooklyn History&nbsp;building hours. View the Othmer Library hours.",
        "status": "4",
        "hours": "",
        "tags": "outdoor services;closed;  open saturdays;"
    },
    {
        "title": "Central Library",
        "address": "10 Grand Army Plaza Brooklyn, NY 11238",
        "position": "40.6725011, -73.9681265",
        "phone": "718.230.2100",
        "access": "Fully accessible",
        "branchid": "01",
        "pickuploc": "1",
        "region": "Central",
        "path": "https://www.bklynlibrary.org/locations/central",
        "closingmsg": "The Information Commons will close at 5:30pm on Monday, October 6th. It will reopen at 9:00am on Tuesday, October 7th.&nbsp;",
        "status": "0",
        "hours": "<i class=\"fa-regular fa-clock icon\"></i>Today's Hours:  1 pm - 5 pm",
        "tags": "after-hours returns;outdoor services;passport office;computer reservations;cooling center;closed; 24hr book drop; open saturdays;open sundays;"
    },
    {
        "title": "Central Library Learning Center",
        "address": "10 Grand Army Plaza Brooklyn, NY 11238",
        "position": "40.6725011, -73.9681265",
        "phone": "718.230.2191",
        "access": "Fully accessible",
        "branchid": "94L",
        "pickuploc": "0",
        "region": "Central",
        "path": "https://www.bklynlibrary.org/locations/central-learning-center",
        "closingmsg": "The Central Adult Learning Center is preparing for the renovation of the 3rd floor of the Central Library and will be closed until Monday, July, 15th at 10:00 AM. &nbsp;During this time we are still available for calls and e-mails, our phone number is 718-230-2420 or e-mail us at CentralLearningCenter@bklynlibrary.org if you need any assistance or would like to make an appointment to join our program. &nbsp;Thank you for your patience.",
        "status": "0",
        "hours": "",
        "tags": "closed;  open saturdays;"
    },
    {
        "title": "Clarendon Library",
        "address": "2035 Nostrand Ave. Brooklyn, NY 11210",
        "position": "40.6357589, -73.9476006",
        "phone": "718.421.1159 ",
        "access": "Fully accessible",
        "branchid": "33",
        "pickuploc": "1",
        "region": "Flatbush",
        "path": "https://www.bklynlibrary.org/locations/clarendon",
        "closingmsg": "",
        "status": "0",
        "hours": "",
        "tags": "after-hours returns;cooling center;closed; 24hr book drop; open saturdays;"
    },
    {
        "title": "Clinton Hill Library",
        "address": "380 Washington Ave. Brooklyn, NY 11238",
        "position": "40.687424161165, -73.965940386054",
        "phone": "718.398.8713",
        "access": "Fully accessible",
        "branchid": "83",
        "pickuploc": "1",
        "region": "ParkSlope",
        "path": "https://www.bklynlibrary.org/locations/clinton-hill",
        "closingmsg": "Due to the inclement weather, all BPL locations will close early today at 4:00 PM,Thursday, July 31.",
        "status": "0",
        "hours": "",
        "tags": "after-hours returns;outdoor services;printing pickup;computer reservations;closed; 24hr book drop; open saturdays;"
    },
    {
        "title": "Coney Island Library",
        "address": "1901 Mermaid Ave. (Near W. 19th St.) Brooklyn, NY 11224",
        "position": "40.5767651, -73.9860791",
        "phone": "718.265.3220",
        "access": "Fully accessible",
        "branchid": "32",
        "pickuploc": "1",
        "region": "NewUtrecht",
        "path": "https://www.bklynlibrary.org/locations/coney-island",
        "closingmsg": "",
        "status": "0",
        "hours": "",
        "tags": "after-hours returns;outdoor services;computer reservations;cooling center;closed; 24hr book drop; open saturdays;notary"
    },
    {
        "title": "Cortelyou Library",
        "address": "1305 Cortelyou Rd. at Argyle Rd. Brooklyn, NY 11226",
        "position": "40.640844, -73.965968",
        "phone": "718.693.7763",
        "access": "Fully accessible",
        "branchid": "87",
        "pickuploc": "1",
        "region": "Flatbush",
        "path": "https://www.bklynlibrary.org/locations/cortelyou",
        "closingmsg": "&nbsp;Due to extreme heat in the building, the Cortelyou Library closed today at 2 pm. &nbsp;Please check&nbsp;the locations map&nbsp;to find open branches in your area. Close branches are Kensington Library, Flatbush Library, Windsor Terrace Library and Midwood library.",
        "status": "0",
        "hours": "",
        "tags": "after-hours returns;outdoor services;cooling center;closed; 24hr book drop; open saturdays;laptop loan;"
    },
    {
        "title": "Crown Heights Library",
        "address": "560 New York Ave. at Maple St. Brooklyn, NY 11225",
        "position": "40.6611981, -73.9481517",
        "phone": "718.773.1180",
        "access": "Fully accessible",
        "branchid": "30",
        "pickuploc": "1",
        "region": "CrownHeights",
        "path": "https://www.bklynlibrary.org/locations/crown-heights",
        "closingmsg": "Crown Heights Library will be temporarily closed from Monday, April 28, 2025 to Saturday, May 3, 2025. The branch is expected to reopen on Monday, May 5, 2025.&nbsp;",
        "status": "0",
        "hours": "",
        "tags": "after-hours returns;outdoor services;printing pickup;computer reservations;cooling center;closed; 24hr book drop; open saturdays;teen tech center;laptop loan;"
    },
    {
        "title": "Cypress Hills Library",
        "address": "1197 Sutter Ave. at Crystal St. Brooklyn, NY 11208",
        "position": "40.6726465, -73.8740892",
        "phone": "718.277.6004",
        "access": "Fully accessible",
        "branchid": "65",
        "pickuploc": "1",
        "region": "NewLots",
        "path": "https://www.bklynlibrary.org/locations/cypress-hills",
        "closingmsg": "Unfortunately, the Cypress Hills Branch is closing early today, September 4th, 2025 at 6:30pm.We apologize for the inconvenience. Please visit our location map for a list of nearby locations open today.",
        "status": "0",
        "hours": "",
        "tags": "after-hours returns;cooling center;closed; 24hr book drop; open saturdays;laptop loan;notary"
    },
    {
        "title": "DeKalb Library",
        "address": "790 Bushwick Ave. at DeKalb Ave. Brooklyn, NY 11221",
        "position": "40.6947857, -73.9284044",
        "phone": "718.455.3898",
        "access": "Partially accessible",
        "branchid": "35",
        "pickuploc": "1",
        "region": "CrownHeights",
        "path": "https://www.bklynlibrary.org/locations/dekalb",
        "closingmsg": "DeKalb Library will be closed at 5pm on Friday, August 1, 2025 due to an odor in the building.&nbsp;Please check bklynlibrary.org/locations&nbsp;to find open branches nearby.&nbsp;&nbsp;",
        "status": "0",
        "hours": "",
        "tags": "after-hours returns;outdoor services;printing pickup;computer reservations;closed; 24hr book drop; open saturdays;laptop loan;"
    },
    {
        "title": "Dyker Library",
        "address": "8202 13th Ave. (@ 82nd St.) Brooklyn, NY 11228",
        "position": "40.616348, -74.011972",
        "phone": "718.748.6261",
        "access": "Fully accessible",
        "branchid": "82",
        "pickuploc": "1",
        "region": "NewUtrecht",
        "path": "https://www.bklynlibrary.org/locations/dyker",
        "closingmsg": "",
        "status": "0",
        "hours": "",
        "tags": "closed;  open saturdays;laptop loan;"
    },
    {
        "title": "East Flatbush Library",
        "address": "9612 Church Ave Brooklyn, NY 11212",
        "position": "40.6556496, -73.9150768",
        "phone": "718.922.0927",
        "access": "Fully accessible",
        "branchid": "36",
        "pickuploc": "1",
        "region": "Flatbush",
        "path": "https://www.bklynlibrary.org/locations/east-flatbush",
        "closingmsg": "Library closed today June 25 at 1:30pm for an electrical outage and the heat. We apologize for any inconvenience.&nbsp;",
        "status": "0",
        "hours": "",
        "tags": "after-hours returns;outdoor services;closed; 24hr book drop; open saturdays;laptop loan;"
    },
    {
        "title": "Eastern Parkway Learning Center",
        "address": "1044 Eastern Parkway - 2nd Floor Brooklyn, NY 11213",
        "position": "40.6684861, -73.93364",
        "phone": "718.778.9330",
        "access": "Fully accessible",
        "branchid": "37L",
        "pickuploc": "0",
        "region": "CrownHeights",
        "path": "https://www.bklynlibrary.org/locations/eastern-parkway-learning-center",
        "closingmsg": "",
        "status": "0",
        "hours": "",
        "tags": "closed;  open saturdays;"
    },
    {
        "title": "Eastern Parkway Library",
        "address": "1044 Eastern Pkwy. at Schenectady Ave. Brooklyn, NY 11213",
        "position": "40.6684863, -73.9336735",
        "phone": "718.953.4225",
        "access": "Fully accessible",
        "branchid": "37",
        "pickuploc": "1",
        "region": "CrownHeights",
        "path": "https://www.bklynlibrary.org/locations/eastern-parkway",
        "closingmsg": "Eastern Parkway Library is getting a complete renovation. The library will close end of business on Saturday November 22, 2025. All holds will be rerouted to nearby branch, Crown Heights starting December 1, 2025.Learn more about the renovationCheck out our upcoming programsDive into the library's online resourcesHomebound or have a visual disability? Try our Books by Mail program.The Bookmobile service will be provided near the library Tuesdays starting November 25, 2025 &nbsp;until December 30, 2025 from 11am until 4pm.&nbsp;",
        "status": "4",
        "hours": "",
        "tags": "outdoor services;printing pickup;computer reservations;cooling center;closed;  open saturdays;"
    },
    {
        "title": "Flatbush Learning Center",
        "address": "22 Linden Blvd. at Flatbush Ave. Brooklyn, NY 11226",
        "position": "40.6519213, -73.958256",
        "phone": "718.856.2631",
        "access": "Partially accessible",
        "branchid": "38L",
        "pickuploc": "0",
        "region": "Flatbush",
        "path": "https://www.bklynlibrary.org/locations/flatbush-learning-center",
        "closingmsg": "",
        "status": "0",
        "hours": "",
        "tags": "closed;  open saturdays;"
    },
    {
        "title": "Flatbush Library",
        "address": "22 Linden Blvd. at Flatbush Ave. Brooklyn, NY 11226",
        "position": "40.651891, -73.958256",
        "phone": "718.856.0813",
        "access": "Fully accessible",
        "branchid": "38",
        "pickuploc": "1",
        "region": "Flatbush",
        "path": "https://www.bklynlibrary.org/locations/flatbush",
        "closingmsg": "The Flatbush Library is temporarily closed due to building maintenance and will be open later today after issues have been resolved. We apologize for any inconvenience. Please check our&nbsp;locations map&nbsp;to find an open branch&nbsp;or to confirm&nbsp;current hours and status before visiting any BPL location. This message will be updated after resolving the issues and the branch is open.&nbsp;",
        "status": "0",
        "hours": "",
        "tags": "after-hours returns;outdoor services;printing pickup;computer reservations;cooling center;summer meals;closed; 24hr book drop; open saturdays;"
    },
    {
        "title": "Flatlands Library",
        "address": "2065 Flatbush Ave. at Ave. P Brooklyn, NY 11234",
        "position": "40.6197853, -73.9331807",
        "phone": "718.253.4409",
        "access": "Fully accessible",
        "branchid": "39",
        "pickuploc": "1",
        "region": "Flatbush",
        "path": "https://www.bklynlibrary.org/locations/flatlands",
        "closingmsg": "Flatlands Library will be closing at 5:15 pm&nbsp;due to building maintenance.&nbsp;",
        "status": "0",
        "hours": "",
        "tags": "after-hours returns;outdoor services;closed; 24hr book drop; open saturdays;notary"
    },
    {
        "title": "Fort Hamilton Library",
        "address": "9424 Fourth Ave. Brooklyn, NY 11209",
        "position": "40.6163806, -74.0313434",
        "phone": "718.748.6919",
        "access": "Fully accessible",
        "branchid": "40",
        "pickuploc": "1",
        "region": "NewUtrecht",
        "path": "https://www.bklynlibrary.org/locations/fort-hamilton",
        "closingmsg": "The Fort Hamilton Branch will have a delayed opening today, Monday, January 6, 2025. Please visit another Brooklyn Public Library&nbsp;location&nbsp;for services during this time.",
        "status": "0",
        "hours": "",
        "tags": "outdoor services;computer reservations;cooling center;closed;  open saturdays;"
    },
    {
        "title": "Gerritsen Beach Library",
        "address": "2808 Gerritsen Ave. Brooklyn, NY 11229",
        "position": "40.5913977, -73.9239955",
        "phone": "718.368.1435",
        "access": "Not accessible",
        "branchid": "66",
        "pickuploc": "0",
        "region": "KingsHighway",
        "path": "https://www.bklynlibrary.org/locations/gerritsen-beach",
        "closingmsg": "Please note: Gerritsen Beach Library is closed for building maintenance. The branch will reopen on Wednesday, November 12, 2025 at 10 am. Library staff is available for outreach services every Monday and Wednesday from 11 am - 4 pm, in front of Gerritsen Beach Library, until the branch reopens.&nbsp;BPL\u2019s Bookmobile will park in front of Gerritsen Beach Library on the below dates:October 15, 20, 27: 11 am -4 pmNovember 3, 12: 11 am - 4 pm&nbsp;Interim Service During ConstructionStaff at Gerritsen Beach Library are hosting programs around our community during construction.&nbsp;Find out about library programs. In addition to the weekly programs, library patrons can also:&nbsp;Request the BookMobile to attend special events (priority is given to neighborhoods without regular library service)Attend virtual programs or use the library's online resourcesOlder adults who are homebound can receive Books by Mail",
        "status": "3",
        "hours": "",
        "tags": "printing pickup;computer reservations;closed for renovation;  open saturdays;"
    },
    {
        "title": "Gravesend Library",
        "address": "303 Ave. X at West. 2nd St. Brooklyn, NY 11223",
        "position": "40.5906025, -73.9717539",
        "phone": "718.382.5792",
        "access": "Fully accessible",
        "branchid": "74",
        "pickuploc": "0",
        "region": "NewUtrecht",
        "path": "https://www.bklynlibrary.org/locations/gravesend",
        "closingmsg": "Infrastructure Upgrades at Gravesend LibraryOn March 10, 2025, the Gravesend Library temporarily closed while the New York City Department of Design and Construction (DDC) launches a project to address longstanding flooding and outdated infrastructure issues at Gravesend Library. The scope includes facade work, window replacement, and other sitework around the branch to prevent water accumulation and infiltration. In addition to this DDC project, BPL will replace the decades-old rooftop heating and cooling units.Please note that the external book return will be unavailable as of March 8, 2025.&nbsp; Remaining holds not picked up March 8, 2025, will be available at the Homecrest Library after March 17, 2025.&nbsp; The Bookmobile will be available 11 AM to 4 PM weekly on Wednesdays March 12, 19, 26, then on the 1st&nbsp;Wednesday of every month beginning April 2, 2025, 11 AM to 4 PM.&nbsp;Please visit our location map for a list of nearby locations to visit and place holds. &nbsp;",
        "status": "3",
        "hours": "",
        "tags": "after-hours returns;outdoor services;computer reservations;closed for renovation; 24hr book drop; open saturdays;"
    },
    {
        "title": "Greenpoint Library and Environmental Education Center",
        "address": "107 Norman Ave. at Leonard St. Brooklyn, NY 11222",
        "position": "40.726063, -73.950631",
        "phone": "718.389.4394",
        "access": "Fully accessible",
        "branchid": "41",
        "pickuploc": "1",
        "region": "CrownHeights",
        "path": "https://www.bklynlibrary.org/locations/greenpoint",
        "closingmsg": "The Greenpoint Library will have a delayed opening on 11/19/24 due to work in front of the building.&nbsp;",
        "status": "0",
        "hours": "<i class=\"fa-regular fa-clock icon\"></i>Today's Hours:  1 pm - 5 pm",
        "tags": "after-hours returns;outdoor services;printing pickup;computer reservations;cooling center;closed; 24hr book drop; open saturdays;open sundays;laptop loan;"
    },
    {
        "title": "Highlawn Library",
        "address": "1664 W. 13th St. Brooklyn, NY 11223",
        "position": "40.6056632, -73.9862627",
        "phone": "718.234.7208",
        "access": "Fully accessible",
        "branchid": "42",
        "pickuploc": "1",
        "region": "NewUtrecht",
        "path": "https://www.bklynlibrary.org/locations/highlawn",
        "closingmsg": "The Highlawn Library will close at 4:00 PM on Thursday, July 31 due to inclement weather.&nbsp;&nbsp;",
        "status": "0",
        "hours": "",
        "tags": "after-hours returns;outdoor services;printing pickup;computer reservations;closed; 24hr book drop; open saturdays;notary"
    },
    {
        "title": "Homecrest Library",
        "address": "2525 Coney Island Ave. at Ave. V Brooklyn, NY 11223",
        "position": "40.5952034, -73.9605501",
        "phone": "718.382.5924",
        "access": "Fully accessible",
        "branchid": "76",
        "pickuploc": "1",
        "region": "KingsHighway",
        "path": "https://www.bklynlibrary.org/locations/homecrest",
        "closingmsg": "Due to excessive heat in the building, the Homecrest Library will close at 2:45 PM today, Thursday, July 31, 2025. We apologize for the inconvenience. Please visit our locations map for open locations today.",
        "status": "0",
        "hours": "",
        "tags": "after-hours returns;outdoor services;printing pickup;computer reservations;closed; 24hr book drop; open saturdays;"
    },
    {
        "title": "Jamaica Bay Library",
        "address": "9727 Seaview Ave. at E. 98th St. near Rockaway Pkwy. Brooklyn, NY 11236",
        "position": "40.634485, -73.889271",
        "phone": "718.241.3571",
        "access": "Fully accessible",
        "branchid": "81",
        "pickuploc": "1",
        "region": "NewLots",
        "path": "https://www.bklynlibrary.org/locations/jamaica-bay",
        "closingmsg": "Due to police activity, the Jamaica Bay Library will close at 3:30 PM on Friday, August 1, 2025. We apologize for any inconvenience. Please check&nbsp;the locations map&nbsp;to find open branches in your area.&nbsp;",
        "status": "0",
        "hours": "",
        "tags": "after-hours returns;outdoor services;cooling center;summer meals;closed; 24hr book drop; open saturdays;laptop loan;"
    },
    {
        "title": "Kensington Library",
        "address": "4207 18th Avenue Brooklyn, NY 11218",
        "position": "40.6312851, -73.9754571",
        "phone": "718.436.0545",
        "access": "Fully accessible",
        "branchid": "43",
        "pickuploc": "1",
        "region": "KingsHighway",
        "path": "https://www.bklynlibrary.org/locations/kensington",
        "closingmsg": "",
        "status": "0",
        "hours": "",
        "tags": "after-hours returns;outdoor services;printing pickup;computer reservations;cooling center;closed; 24hr book drop; open saturdays;"
    },
    {
        "title": "Kings Bay Library",
        "address": "3650 Nostrand Ave. (near Ave. W) Brooklyn, NY 11229",
        "position": "40.5947871, -73.9411462",
        "phone": "718.368.1709",
        "access": "Fully accessible",
        "branchid": "44",
        "pickuploc": "1",
        "region": "KingsHighway",
        "path": "https://www.bklynlibrary.org/locations/kings-bay",
        "closingmsg": "The Kings Bay Library &nbsp;will be closed, Friday, Jan 24, 2025, due to insufficient heat in the branch. Please see our&nbsp;location map&nbsp;for a list of branches that are currently open.&nbsp;Have a great day!",
        "status": "0",
        "hours": "",
        "tags": "after-hours returns;outdoor services;computer reservations;cooling center;closed; 24hr book drop; open saturdays;laptop loan;"
    },
    {
        "title": "Kings Highway Library",
        "address": "2115 Ocean Ave. Brooklyn, NY 11229",
        "position": "40.610259, -73.953114",
        "phone": "718.375.3037",
        "access": "Fully accessible",
        "branchid": "45",
        "pickuploc": "1",
        "region": "KingsHighway",
        "path": "https://www.bklynlibrary.org/locations/kings-highway",
        "closingmsg": "Because of the recent branch renovations and due to incoming materials and shelf reorganization, Kings Highway Library will remain closed on Monday, August 4th. &nbsp;We will reopen on Tuesday, AUGUST 5th, 2025 AT 1PM. We apologize for any inconvenience. Please see nearby open locations&nbsp;for services during our closing.",
        "status": "0",
        "hours": "<i class=\"fa-regular fa-clock icon\"></i>Today's Hours:  1 pm - 5 pm",
        "tags": "after-hours returns;outdoor services;passport office;printing pickup;computer reservations;closed; 24hr book drop; open saturdays;teen tech center;open sundays;laptop loan;"
    },
    {
        "title": "Leonard Library",
        "address": "81 Devoe St. at Leonard St. Brooklyn, NY 11211",
        "position": "40.713637, -73.947968",
        "phone": "718.486.6006",
        "access": "Partially accessible",
        "branchid": "46",
        "pickuploc": "0",
        "region": "CrownHeights",
        "path": "https://www.bklynlibrary.org/locations/leonard",
        "closingmsg": "Due to building maintenance, the Leonard library will be temporarily closed to the public on Tuesday October 7, 2025. We will reopen at 10am on Wednesday October 8, 2025..&nbsp;",
        "status": "0",
        "hours": "",
        "tags": "outdoor services;printing pickup;computer reservations;closed;  open saturdays;"
    },
    {
        "title": "Library for Arts & Culture",
        "address": "10 Lafayette Avenue, Second Floor Brooklyn, NY 11217",
        "position": "40.686236, -73.978304",
        "phone": "718.230.2700",
        "access": "Partially accessible",
        "branchid": "58",
        "pickuploc": "0",
        "region": "",
        "path": "https://www.bklynlibrary.org/locations/library-for-arts-and-culture",
        "closingmsg": "On Saturday, August 23rd, The L10 Arts and Cultural Center, including BPL's Library for Arts &amp; Culture, will be closed to the public due to the Planet Brooklyn Festival taking place on Lafayette Avenue and throughout Downtown Brooklyn.",
        "status": "0",
        "hours": "",
        "tags": "closed;  open saturdays;laptop loan;"
    },
    {
        "title": "Macon Library",
        "address": "361 Lewis Ave. at Macon St. Brooklyn, NY 11233",
        "position": "40.6830369, -73.9348376",
        "phone": "718.573.5606",
        "access": "Fully accessible",
        "branchid": "47",
        "pickuploc": "1",
        "region": "NewLots",
        "path": "https://www.bklynlibrary.org/locations/macon",
        "closingmsg": "Due to the maintaince of the building , the Macon Branch will close at 11:00 AM today, Thursday, September 11, 2025. We apologize for the inconvenience. Please visit our location map for a list of nearby locations open today.",
        "status": "0",
        "hours": "<i class=\"fa-regular fa-clock icon\"></i>Today's Hours:  1 pm - 5 pm",
        "tags": "after-hours returns;printing pickup;computer reservations;cooling center;closed; 24hr book drop; open saturdays;open sundays;laptop loan;"
    },
    {
        "title": "Mapleton Library",
        "address": "1702 60th Street Brooklyn, NY 11204",
        "position": "40.6231592, -73.989456",
        "phone": "718.256.2117",
        "access": "Fully accessible",
        "branchid": "49",
        "pickuploc": "0",
        "region": "KingsHighway",
        "path": "https://www.bklynlibrary.org/locations/mapleton",
        "closingmsg": "Mapleton Library is closed for a major renovation and is expected to reopen in 2026. Please check the locations map to find open branches in your area. &nbsp;&nbsp;BPL\u2019s Bookmobile will park at&nbsp;Gravesend Park&nbsp;on&nbsp;18th Avenue between 56th and 57th Streets&nbsp;throughout March&nbsp;2024.&nbsp;Please see&nbsp;Mapleton Library Events&nbsp;for dates and times.&nbsp;Mapleton library staff are&nbsp;hard at work identifying locations to provide services and programs while the branch is closed.&nbsp;&nbsp;",
        "status": "3",
        "hours": "",
        "tags": "after-hours returns;outdoor services;computer reservations;cooling center;closed for renovation; 24hr book drop; open saturdays;"
    },
    {
        "title": "Marcy Library",
        "address": "617 DeKalb Ave. at Nostrand Ave. Brooklyn, NY 11216",
        "position": "40.6916309, -73.9512645",
        "phone": "718.935.0032",
        "access": "Fully accessible",
        "branchid": "59",
        "pickuploc": "1",
        "region": "CrownHeights",
        "path": "https://www.bklynlibrary.org/locations/marcy",
        "closingmsg": "The Marcy Library will be closed today, February 11, 2025, due to insufficient heat in the building. Please see our&nbsp;location map&nbsp;for a list of branches that are currently open.",
        "status": "0",
        "hours": "",
        "tags": "after-hours returns;outdoor services;printing pickup;computer reservations;cooling center;closed; 24hr book drop; open saturdays;laptop loan;"
    },
    {
        "title": "McKinley Park Library",
        "address": "6802 Fort Hamilton Pkwy (at 68th St.) Brooklyn, NY 11219",
        "position": "40.629178, -74.01188",
        "phone": "718.748.8001",
        "access": "Fully accessible",
        "branchid": "67",
        "pickuploc": "1",
        "region": "NewUtrecht",
        "path": "https://www.bklynlibrary.org/locations/mckinley-park",
        "closingmsg": "The McKinley Park Library will be closing today at 1pm due to extreme heat in the building. We apologize for any inconvenience. Please check our&nbsp;locations map&nbsp;to find an open branch&nbsp;or to confirm&nbsp;current hours and status before visiting any BPL location.&nbsp;&nbsp;",
        "status": "0",
        "hours": "",
        "tags": "after-hours returns;outdoor services;computer reservations;cooling center;closed; 24hr book drop; open saturdays;"
    },
    {
        "title": "Midwood Library",
        "address": "975 East 16th St. at Avenue J Brooklyn, NY 11230",
        "position": "40.625907, -73.9604005",
        "phone": "718.252.0967",
        "access": "Fully accessible",
        "branchid": "48",
        "pickuploc": "1",
        "region": "KingsHighway",
        "path": "https://www.bklynlibrary.org/locations/midwood",
        "closingmsg": "&nbsp;Midwood Library is temporarily closed today, Sunday, May 11th, 2025 due to building maintenance. &nbsp;We apologize for any inconvenience.&nbsp;&nbsp;",
        "status": "0",
        "hours": "<i class=\"fa-regular fa-clock icon\"></i>Today's Hours:  1 pm - 5 pm",
        "tags": "after-hours returns;outdoor services;printing pickup;computer reservations;cooling center;closed; 24hr book drop; open saturdays;open sundays;notary"
    },
    {
        "title": "Mill Basin Library",
        "address": "2385 Ralph Ave (near Ave N) Brooklyn, NY 11234",
        "position": "40.6199454, -73.9169226",
        "phone": "718.241.3979",
        "access": "Fully accessible",
        "branchid": "68",
        "pickuploc": "1",
        "region": "Flatbush",
        "path": "https://www.bklynlibrary.org/locations/mill-basin",
        "closingmsg": "Due to building maintenance, the Mill Basin Library will close at 5 pm today, Monday June 30, 2025. We apologize for any inconvenience. &nbsp;Please see our&nbsp;location map&nbsp;for a list of branches that are currently open.",
        "status": "0",
        "hours": "",
        "tags": "after-hours returns;printing pickup;computer reservations;cooling center;closed; 24hr book drop; open saturdays;laptop loan;"
    },
    {
        "title": "New Lots Learning Center",
        "address": "665 New Lots Avenue at Barbey St. Brooklyn, NY 11207",
        "position": "40.6651154, -73.8861478",
        "phone": "718.257.0260",
        "access": "Fully accessible",
        "branchid": "52L",
        "pickuploc": "0",
        "region": "CrownHeights",
        "path": "https://www.bklynlibrary.org/locations/new-lots-learning-center",
        "closingmsg": "The New Lots Adult Learning Center is temporarily closed due to renovations. Please contact us via email or phone for assistance.&nbsp;Note: We will be offering classes beginning in October 2025 at a temporary location.Phone: 908-867-8663Email: NewLotsLC@bklynlibrary.org&nbsp;Thank you,The Adult Learning Center team",
        "status": "3",
        "hours": "",
        "tags": "closed for renovation;  open saturdays;"
    },
    {
        "title": "New Lots Library",
        "address": "665 New Lots Avenue at Barbey St. Brooklyn, NY 11207",
        "position": "40.6651154, -73.8861478",
        "phone": "718.649.0311",
        "access": "Fully accessible",
        "branchid": "52",
        "pickuploc": "1",
        "region": "NewLots",
        "path": "https://www.bklynlibrary.org/locations/new-lots",
        "closingmsg": "New Lots Library is getting a complete renovation. The library will be closed until at least 2028. &nbsp; All holds will be rerouted to nearby branch, Spring Creek.Learn more about the renovationCheck out our upcoming programsDive into the library's online resourcesHomebound or have a visual disability? Try our Books by Mail program.The Bookmobile will be parked outside of the library on Tuesday, September 2, 9, 16, 23, 30, and October 7 from 11am until 4pm.&nbsp;",
        "status": "3",
        "hours": "",
        "tags": "after-hours returns;cooling center;summer meals;closed for renovation; 24hr book drop; open saturdays;open sundays;laptop loan;notary"
    },
    {
        "title": "New Utrecht Library",
        "address": "1743 86th St. at Bay 17th St. Brooklyn, NY 11214",
        "position": "40.6080187, -74.0033411",
        "phone": "718.236.4086",
        "access": "Fully accessible",
        "branchid": "51",
        "pickuploc": "1",
        "region": "NewUtrecht",
        "path": "https://www.bklynlibrary.org/locations/new-utrecht",
        "closingmsg": "&nbsp;Please see our&nbsp;location map&nbsp;for a list of branches that are currently open.&nbsp;Viewing the&nbsp;events calendar for programs and events (in-person and virtual)Using the library's online resourcesOlder adults who are homebound may receive Books by Mail&nbsp;",
        "status": "0",
        "hours": "",
        "tags": "after-hours returns;outdoor services;printing pickup;computer reservations;cooling center;summer meals;closed; 24hr book drop; open saturdays;"
    },
    {
        "title": "Pacific Library",
        "address": "25 Fourth Ave. at Pacific St. Brooklyn, NY 11217",
        "position": "40.683449, -73.978549",
        "phone": "718.638.1531",
        "access": "Partially accessible",
        "branchid": "69",
        "pickuploc": "1",
        "region": "ParkSlope",
        "path": "https://www.bklynlibrary.org/locations/pacific",
        "closingmsg": "The Pacific Library is closed for building maintenance and diagnostic review. This short-term closure is related to the design plans for the branch's upcoming renovation. The library is expected to re-open on Thursday, November 6. &nbsp;&nbsp;Visit the locations map to find nearby open branches for browsing, holds pickup, and more events.&nbsp;",
        "status": "2",
        "hours": "",
        "tags": "after-hours returns;printing pickup;computer reservations;cooling center;closed;temporary closure; 24hr book drop; open saturdays;"
    },
    {
        "title": "Paerdegat Library",
        "address": "850 E. 59th St. at Paerdegat Ave. South Brooklyn, NY 11234",
        "position": "40.6325973, -73.9199539",
        "phone": "718.241.3994",
        "access": "Fully accessible",
        "branchid": "78",
        "pickuploc": "1",
        "region": "Flatbush",
        "path": "https://www.bklynlibrary.org/locations/paerdegat",
        "closingmsg": "The Paerdegat Library will be closed, . We apologize for any inconvenience. Please check our&nbsp;locations map&nbsp;to find an open branch&nbsp;or to confirm&nbsp;current hours and status before visiting any BPL location.",
        "status": "0",
        "hours": "",
        "tags": "after-hours returns;outdoor services;cooling center;closed; 24hr book drop; open saturdays;notary"
    },
    {
        "title": "Park Slope Library",
        "address": "431 6th Ave Brooklyn, NY 11215",
        "position": "40.6682174, -73.9834162",
        "phone": "718.832.1853",
        "access": "Fully accessible",
        "branchid": "53",
        "pickuploc": "1",
        "region": "ParkSlope",
        "path": "https://www.bklynlibrary.org/locations/park-slope",
        "closingmsg": "The Park Slope Library will close for building maintenance on Friday, June 28, 2024. The branch is expected to reopen on Tuesday, July 16, 2024. Holds ready for pickup will remain in place and be available an additional one week after opening.During this time, please visit our nearby locations for service.",
        "status": "0",
        "hours": "",
        "tags": "after-hours returns;cooling center;closed; 24hr book drop; open saturdays;"
    },
    {
        "title": "Red Hook Interim Library",
        "address": "362 Van Brunt Street Brooklyn , NY 11231",
        "position": "40.67728, -74.009447",
        "phone": "929.969.0166 ",
        "access": "Partially accessible",
        "branchid": "70",
        "pickuploc": "1",
        "region": "ParkSlope",
        "path": "https://www.bklynlibrary.org/locations/red-hook/interim-library",
        "closingmsg": "Red Hook Interim Library provides services for Red Hook residents while the Red Hook Library location is under construction. The interim location will open on July 9, 2024. Learn more about the updates to the Red Hook Library.&nbsp;",
        "status": "0",
        "hours": "",
        "tags": "closed;laptop loan;notary"
    },
    {
        "title": "Rugby Library",
        "address": "1000 Utica Ave. Brooklyn, NY 11203",
        "position": "40.6486576, -73.9303793",
        "phone": "718.566.0053",
        "access": "Fully accessible",
        "branchid": "54",
        "pickuploc": "1",
        "region": "Flatbush",
        "path": "https://www.bklynlibrary.org/locations/rugby",
        "closingmsg": "Delayed OpeningRugby Library will open to the public at 11 AM on Saturday, 6/28/2025 due to special programming. We apologize for the inconvenience.",
        "status": "0",
        "hours": "",
        "tags": "after-hours returns;outdoor services;cooling center;summer meals;closed; 24hr book drop; open saturdays;laptop loan;notary"
    },
    {
        "title": "Ryder Library",
        "address": "5902 23rd Ave. Brooklyn, NY 11204",
        "position": "40.6159251, -73.9759804",
        "phone": "718.331.2962",
        "access": "Fully accessible",
        "branchid": "80",
        "pickuploc": "0",
        "region": "KingsHighway",
        "path": "https://www.bklynlibrary.org/locations/ryder",
        "closingmsg": "Ryder Library is closed for infrastructure and interior renovations and is expected to open in early 2026.Please check&nbsp;the locations map&nbsp;to find open branches in your area.&nbsp;",
        "status": "3",
        "hours": "",
        "tags": "after-hours returns;printing pickup;computer reservations;cooling center;closed for renovation; 24hr book drop; open saturdays;"
    },
    {
        "title": "Saratoga Library",
        "address": "8 Thomas S. Boyland St. at Macon St. Brooklyn, NY 11233",
        "position": "40.684789, -73.915177",
        "phone": "718.573.5224",
        "access": "Fully accessible",
        "branchid": "57",
        "pickuploc": "1",
        "region": "NewLots",
        "path": "https://www.bklynlibrary.org/locations/saratoga",
        "closingmsg": "Saratoga Library is closed for today (Monday, February 10, 2025)",
        "status": "0",
        "hours": "",
        "tags": "after-hours returns;closed; 24hr book drop; open saturdays;teen tech center;laptop loan;notary"
    },
    {
        "title": "Sheepshead Bay Library",
        "address": "2636 E. 14th St. at Ave. Z Brooklyn, NY 11235",
        "position": "40.5869651, -73.9554071",
        "phone": "718.368.1815",
        "access": "Fully accessible",
        "branchid": "56",
        "pickuploc": "1",
        "region": "KingsHighway",
        "path": "https://www.bklynlibrary.org/locations/sheepshead-bay",
        "closingmsg": "Due to a shortage of staff, the library will open at 11 am.",
        "status": "0",
        "hours": "",
        "tags": "after-hours returns;outdoor services;printing pickup;computer reservations;closed; 24hr book drop; open saturdays;notary"
    },
    {
        "title": "Spring Creek Library",
        "address": "12143 Flatlands Ave. at New Jersey Ave. Brooklyn, NY 11207",
        "position": "40.6532637, -73.8859641",
        "phone": "718.257.6571",
        "access": "Fully accessible",
        "branchid": "85",
        "pickuploc": "1",
        "region": "NewLots",
        "path": "https://www.bklynlibrary.org/locations/spring-creek",
        "closingmsg": "The Spring Creek library will be closed Today, Wednesday, July 16, 2025, at 2 PM &nbsp;due to excessive heat in the building. We apologize for any inconvenience.Please check&nbsp;the locations map&nbsp;to find open branches in your area.&nbsp;",
        "status": "0",
        "hours": "",
        "tags": "after-hours returns;outdoor services;printing pickup;computer reservations;cooling center;closed; 24hr book drop; open saturdays;"
    },
    {
        "title": "Stone Avenue Library",
        "address": "581 Mother Gaston Boulevard Brooklyn, NY 11212",
        "position": "40.6644418, -73.9052563",
        "phone": "718.485.8347",
        "access": "Partially accessible",
        "branchid": "26",
        "pickuploc": "1",
        "region": "NewLots",
        "path": "https://www.bklynlibrary.org/locations/stone-avenue",
        "closingmsg": "The Stone Avenue branch is close today, April 19, 2025.&nbsp;The branch will reopen Monday, April 21, 2025, at 10:00 AM.&nbsp;",
        "status": "0",
        "hours": "",
        "tags": "after-hours returns;printing pickup;computer reservations;closed; 24hr book drop; open saturdays;laptop loan;"
    },
    {
        "title": "Sunset Park Library",
        "address": "5108 Fourth Avenue Brooklyn, NY 11220",
        "position": "40.6459117, -74.0136256",
        "phone": "718.230.2255",
        "access": "Partially accessible",
        "branchid": "55",
        "pickuploc": "1",
        "region": "NewUtrecht",
        "path": "https://www.bklynlibrary.org/locations/sunset-park",
        "closingmsg": "Due to building maintenance issues, the library will be closing at 3:45pm today, Saturday January 4th. We apologize for any inconvenience.&nbsp;",
        "status": "0",
        "hours": "",
        "tags": "after-hours returns;computer reservations;closed; 24hr book drop; open saturdays;notary"
    },
    {
        "title": "Teen Tech Center at The Annex",
        "address": "1 John Street Brooklyn, NY 11201",
        "position": "40.7046228, -73.9878238",
        "phone": "718.230.2280",
        "access": "Fully accessible",
        "branchid": "777",
        "pickuploc": "0",
        "region": "ParkSlope",
        "path": "https://www.bklynlibrary.org/locations/annex",
        "closingmsg": "For information about the Teen Tech Center at the Annex, click here.&nbsp;For information about other library services, visit the Adams Street Library.&nbsp;",
        "status": "0",
        "hours": "",
        "tags": "outdoor services;closed;  teen tech center;laptop loan;"
    },
    {
        "title": "Ulmer Park Library",
        "address": "2602 Bath Avenue at 26th Ave Brooklyn, NY 11214",
        "position": "40.5926124, -73.9886502",
        "phone": "718.265.3443",
        "access": "Partially accessible",
        "branchid": "71",
        "pickuploc": "1",
        "region": "NewUtrecht",
        "path": "https://www.bklynlibrary.org/locations/ulmer-park",
        "closingmsg": "Ulmer Park Library will close at 6:30pm on July 23, 2024. We apologize for any inconvienence and we thank you for your understanding.&nbsp;",
        "status": "0",
        "hours": "",
        "tags": "after-hours returns;outdoor services;computer reservations;closed; 24hr book drop; open saturdays;"
    },
    {
        "title": "Walt Whitman Library",
        "address": "93 Saint Edwards Street Brooklyn, NY 11205",
        "position": "40.6944632, -73.9777267",
        "phone": "718.935.0244",
        "access": "Not accessible",
        "branchid": "62",
        "pickuploc": "0",
        "region": "ParkSlope",
        "path": "https://www.bklynlibrary.org/locations/walt-whitman",
        "closingmsg": "Walt Whitman Library is closed for renovations.&nbsp;For programming in the Fort Greene area, check out upcoming events planned by Walt Whitman Library staff, and the Places We Gather audio tour.Visit the locations map to find nearby open branches for browsing, holds pickup, and more events.&nbsp;",
        "status": "3",
        "hours": "",
        "tags": "printing pickup;cooling center;closed for renovation;  open saturdays;laptop loan;"
    },
    {
        "title": "Washington Irving Library",
        "address": "360 Irving Ave. (at Woodbine St.) Brooklyn, NY 11237",
        "position": "40.6975031, -73.9122378",
        "phone": "718.628.8378",
        "access": "Fully accessible",
        "branchid": "61",
        "pickuploc": "1",
        "region": "CrownHeights",
        "path": "https://www.bklynlibrary.org/locations/washington-irving",
        "closingmsg": "",
        "status": "0",
        "hours": "",
        "tags": "after-hours returns;printing pickup;cooling center;closed; 24hr book drop; open saturdays;laptop loan;"
    },
    {
        "title": "Williamsburgh Library",
        "address": "240 Division Ave. at Marcy Ave. Brooklyn, NY 11211",
        "position": "40.7069143, -73.9575883",
        "phone": "718.302.3485",
        "access": "Fully accessible",
        "branchid": "60",
        "pickuploc": "1",
        "region": "ParkSlope",
        "path": "https://www.bklynlibrary.org/locations/williamsburgh",
        "closingmsg": "The Williamsburgh Library is closed today, December 26, 2024 due to insufficient heat in the building.Please check&nbsp;the locations map&nbsp;to find open branches in your area.",
        "status": "0",
        "hours": "",
        "tags": "outdoor services;cooling center;closed;  open saturdays;notary"
    },
    {
        "title": "Windsor Terrace Library",
        "address": "160 E. 5th St. at Ft. Hamilton Pkwy. Brooklyn, NY 11218",
        "position": "40.648719, -73.976714",
        "phone": "718.686.9707",
        "access": "Partially accessible",
        "branchid": "77",
        "pickuploc": "1",
        "region": "Flatbush",
        "path": "https://www.bklynlibrary.org/locations/windsor-terrace",
        "closingmsg": "The Windsor Terrace Library closed today, Monday, December 23, 2024, at 1:15 pm, due to extremely cold temperatures in the branch. Please see our&nbsp;location map&nbsp;for a list of branches that are currently open.",
        "status": "0",
        "hours": "",
        "tags": "after-hours returns;outdoor services;cooling center;closed; 24hr book drop; open saturdays;"
    }
]